City_ID,City,Country,Lat,Lng,Max Temp,Humidity,Cloudiness,Wind Speed,Current Description
0,Aklavik,CA,68.2191,-135.0107,35.6,87,75,17.27,broken clouds
1,Kahului,US,20.8947,-156.47,82.98,74,20,12.66,few clouds
2,Dikson,RU,73.5069,80.5464,29.84,96,100,18.88,light snow
3,Mataura,NZ,-46.1927,168.8643,39.15,96,7,1.9,clear sky
4,Port Elizabeth,ZA,-33.918,25.5701,52.09,76,40,3.44,scattered clouds
5,Cabo San Lucas,MX,22.8909,-109.9124,91.81,50,1,4.61,clear sky
6,Kokopo,PG,-4.352,152.2633,76.03,88,100,4.36,overcast clouds
7,Carahue,CL,-38.7,-73.1667,48.4,68,100,1.36,overcast clouds
8,Kodiak,US,57.79,-152.4072,47.71,76,1,6.91,clear sky
9,Lakatoro,VU,-16.0999,167.4164,74.53,76,100,7.34,overcast clouds
10,Ballitoville,ZA,-29.539,31.2144,65.25,82,0,14.83,clear sky
11,Atuona,PF,-9.8,-139.0333,79.7,80,26,19.62,light rain
12,Albany,US,42.6001,-73.9662,80.74,71,92,1.99,overcast clouds
13,Mar Del Plata,AR,-38.0023,-57.5575,57.99,53,75,11.99,broken clouds
14,Eyl,SO,7.9803,49.8164,80.96,71,73,22.75,broken clouds
15,Vallenar,CL,-28.5708,-70.7581,80.35,8,100,6.11,overcast clouds
16,Cherlak,RU,54.155,74.8055,69.04,68,100,8.88,light rain
17,Yellowknife,CA,62.456,-114.3525,64.33,42,20,5.99,few clouds
18,Port Alfred,ZA,-33.5906,26.891,65.19,45,62,11.34,broken clouds
19,Salalah,OM,17.0151,54.0924,84.29,79,20,4.61,few clouds
20,Trairi,BR,-3.2778,-39.2689,82.56,73,94,10.2,overcast clouds
21,Neiafu,TO,-18.65,-173.9833,75.88,100,20,0.0,few clouds
22,Ostrovnoy,RU,68.0531,39.5131,34.11,66,10,2.93,clear sky
23,Kovdor,RU,67.5662,30.4758,32.2,89,94,4.9,overcast clouds
24,Victoria,HK,22.2855,114.1577,86.38,83,82,4.0,broken clouds
25,East London,ZA,-33.0153,27.9116,62.89,61,92,7.76,overcast clouds
26,Punta Arenas,CL,-53.15,-70.9167,41.11,88,90,12.59,light rain
27,Rikitea,PF,-23.1203,-134.9692,74.3,68,41,4.9,scattered clouds
28,Broome,US,42.2506,-75.833,82.0,56,90,4.0,overcast clouds
29,Khovu-Aksy,RU,51.1333,93.6,40.1,86,65,4.12,broken clouds
30,West Bay,KY,19.3667,-81.4167,83.07,79,40,1.99,scattered clouds
31,Oriximina,BR,-1.7656,-55.8661,84.97,70,93,4.72,overcast clouds
32,Busselton,AU,-33.65,115.3333,44.1,67,74,15.01,broken clouds
33,Bredasdorp,ZA,-34.5322,20.0403,52.92,53,95,5.01,overcast clouds
34,Bluff,NZ,-46.6,168.3333,47.39,66,74,8.9,broken clouds
35,Klyuchi,RU,52.2667,79.1667,70.75,30,68,9.1,broken clouds
36,Kapaa,US,22.0752,-159.319,78.78,77,40,1.01,light rain
37,Vaini,TO,-21.2,-175.2,71.76,100,90,9.22,light rain
38,Provideniya,RU,64.3833,-173.3,33.91,75,90,13.42,overcast clouds
39,Diffa,NE,13.3154,12.6113,91.38,11,0,5.95,clear sky
40,Saint-Philippe,RE,-21.3585,55.7679,72.95,83,95,11.77,light rain
41,Ahipara,NZ,-35.1667,173.1667,57.76,71,90,16.37,overcast clouds
42,Bethel,US,41.3712,-73.414,88.11,52,75,1.01,broken clouds
43,Jamestown,US,42.097,-79.2353,78.01,64,90,13.8,overcast clouds
44,Phan Thiet,VN,10.9333,108.1,78.28,92,100,7.31,overcast clouds
45,Abilene,US,32.4487,-99.7331,82.89,62,75,5.99,broken clouds
46,Meulaboh,ID,4.1363,96.1285,77.7,89,100,5.01,overcast clouds
47,Dzhida,RU,50.6772,106.1806,37.94,64,84,6.89,broken clouds
48,Fukue,JP,32.6881,128.8419,63.73,87,100,8.23,light rain
49,Petropavlovsk-Kamchatskiy,RU,53.0452,158.6483,41.59,85,75,1.28,broken clouds
50,Jawhar,SO,2.7809,45.5005,76.01,79,57,13.42,broken clouds
51,Nioro,GM,13.35,-15.75,90.5,25,18,14.88,few clouds
52,Nautla,MX,20.2167,-96.7833,85.05,63,20,10.78,few clouds
53,Tarko-Sale,RU,64.9225,77.785,51.28,73,100,10.76,overcast clouds
54,Fortuna,US,40.5982,-124.1573,73.42,66,1,3.0,clear sky
55,Hobart,AU,-42.8794,147.3294,49.12,89,100,4.0,overcast clouds
56,Gimli,CA,50.6336,-96.9907,56.05,76,100,3.44,overcast clouds
57,Nikolskoye,RU,59.7035,30.7861,53.49,98,67,5.01,moderate rain
58,Horta,PT,38.5333,-28.6333,64.04,59,20,14.97,few clouds
59,Butte,US,39.6499,-121.5677,74.75,28,1,8.12,clear sky
60,Sao Raimundo Das Mangabeiras,BR,-7.0219,-45.4811,92.79,34,15,6.44,few clouds
61,Jaciara,BR,-15.9653,-54.9683,70.83,94,100,6.53,overcast clouds
62,Coihaique,CL,-45.5752,-72.0662,52.41,93,90,9.22,light rain
63,Mahebourg,MU,-20.4081,57.7,73.69,83,40,6.91,light rain
64,Great Yarmouth,GB,52.6083,1.7305,54.45,77,100,18.14,overcast clouds
65,Bilibino,RU,68.0546,166.4372,27.73,85,12,2.53,few clouds
66,Ushuaia,AR,-54.8,-68.3,46.06,71,40,13.8,scattered clouds
67,Yabelo,ET,4.8833,38.0833,61.56,78,74,7.58,broken clouds
68,Cape Town,ZA,-33.9258,18.4232,64.81,43,0,6.69,clear sky
69,Kavieng,PG,-2.5744,150.7967,81.52,82,100,14.18,light rain
70,Bethanien,NA,-26.502,17.1583,66.96,26,0,8.48,clear sky
71,Loralai,PK,30.3705,68.598,71.55,42,0,6.98,clear sky
72,Khatanga,RU,71.9667,102.5,34.66,93,100,5.93,overcast clouds
73,Qaqortoq,GL,60.7167,-46.0333,43.3,74,100,8.59,overcast clouds
74,Athabasca,CA,54.7169,-113.2854,63.01,56,100,7.56,overcast clouds
75,Opuwo,NA,-18.0607,13.84,67.26,34,0,7.74,clear sky
76,Morozovsk,RU,48.3539,41.8261,67.17,81,100,8.14,overcast clouds
77,Gornopravdinsk,RU,60.05,69.9,58.73,54,0,8.9,clear sky
78,Tuatapere,NZ,-46.1333,167.6833,43.07,89,61,3.91,broken clouds
79,Tamala,RU,52.541,43.2515,59.13,97,92,7.83,overcast clouds
80,Puerto Ayora,EC,-0.7393,-90.3518,82.36,85,29,5.01,scattered clouds
81,Washougal,US,45.5826,-122.3534,62.26,75,90,1.01,overcast clouds
82,Kungurtug,RU,50.5994,97.5228,38.34,95,100,3.8,overcast clouds
83,Mackay,AU,-21.15,149.2,67.68,80,9,16.4,clear sky
84,Laguna,US,38.421,-121.4238,76.64,43,1,4.0,clear sky
85,Patrasaer,IN,23.2167,87.5167,87.39,50,0,4.16,clear sky
86,Port-Gentil,GA,-0.7193,8.7815,82.36,83,90,10.36,overcast clouds
87,Qaanaaq,GL,77.484,-69.3632,30.31,72,1,2.73,clear sky
88,Tasiilaq,GL,65.6145,-37.6368,30.36,96,100,7.7,snow
89,Chapais,CA,49.7834,-74.8492,46.4,49,20,16.11,few clouds
90,Escanaba,US,45.7453,-87.0646,59.97,66,90,9.22,overcast clouds
91,Souillac,MU,-20.5167,57.5167,73.78,83,40,12.91,light rain
92,Dwarka,IN,22.2394,68.9678,84.58,76,0,14.88,clear sky
93,Maputo,MZ,-25.9653,32.5892,68.23,79,20,4.61,few clouds
94,Maniitsoq,GL,65.4167,-52.9,32.76,90,100,23.6,light snow
95,Ponta Do Sol,PT,32.6667,-17.1,67.01,61,87,7.85,overcast clouds
96,Coquimbo,CL,-29.9533,-71.3436,64.13,49,0,8.19,clear sky
97,Hofn,IS,64.2539,-15.2082,43.52,75,87,15.01,overcast clouds
98,Novobiryusinskiy,RU,56.9578,97.7076,45.23,94,100,4.9,overcast clouds
99,Neftcala,AZ,39.3742,49.2472,69.98,71,98,4.76,overcast clouds
100,Luderitz,NA,-26.6481,15.1594,72.07,37,0,4.14,clear sky
101,Salym,RU,60.0625,71.4789,56.46,62,0,7.76,clear sky
102,Kapit,MY,2.0167,112.9333,72.91,98,100,0.92,overcast clouds
103,Avarua,CK,-21.2078,-159.775,80.65,78,20,10.36,few clouds
104,Real,PH,14.6625,121.6047,84.22,88,9,4.74,clear sky
105,Faanui,PF,-16.4833,-151.75,81.12,75,36,16.11,scattered clouds
106,Haines Junction,CA,60.7522,-137.5108,40.95,87,100,3.44,light rain
107,Isla Vista,US,34.4133,-119.861,76.35,59,1,8.05,clear sky
108,Moose Factory,CA,51.2585,-80.6094,41.0,65,20,5.75,few clouds
109,Bathsheba,BB,13.2167,-59.5167,88.41,69,40,19.04,scattered clouds
110,Adrar,MR,20.5022,-10.0711,100.63,11,0,8.59,clear sky
111,Jieshi,CN,22.8134,115.8257,81.81,86,81,4.54,broken clouds
112,Severo-Kurilsk,RU,50.6789,156.125,44.51,64,43,2.21,scattered clouds
113,Vaitape,PF,-16.5167,-151.75,81.1,75,35,16.04,scattered clouds
114,Katsuura,JP,35.1333,140.3,66.31,89,90,2.28,overcast clouds
115,Hit,IQ,33.6416,42.8251,81.37,20,0,8.93,clear sky
116,Bay Roberts,CA,47.5999,-53.2648,55.51,86,100,15.01,light rain
117,Kavaratti,IN,10.5669,72.642,83.43,74,94,6.93,overcast clouds
118,Arica,CL,-18.475,-70.3042,71.15,69,20,7.65,few clouds
119,Byron Bay,AU,-28.65,153.6167,61.88,81,98,11.68,overcast clouds
120,Tonota,BW,-21.4833,27.4833,56.01,61,0,7.94,clear sky
121,Saldanha,ZA,-33.0117,17.9442,65.07,49,56,8.55,broken clouds
122,Hithadhoo,MV,-0.6,73.0833,83.79,73,100,9.28,overcast clouds
123,Ketchikan,US,55.3422,-131.6461,50.38,79,94,2.57,light rain
124,Cabras,IT,39.93,8.5314,66.07,61,16,3.96,few clouds
125,Coruripe,BR,-10.1256,-36.1756,79.5,71,43,8.01,scattered clouds
126,Belousovka,KZ,50.1339,82.5239,54.45,81,5,2.71,clear sky
127,Manta,EC,-0.95,-80.7333,80.38,78,75,4.61,broken clouds
128,Cherskiy,RU,68.75,161.3,39.51,60,13,4.36,few clouds
129,Butaritari,KI,3.0707,172.7902,82.63,77,58,15.03,light rain
130,Ylivieska,FI,64.0833,24.55,46.89,96,100,4.68,overcast clouds
131,Hilo,US,19.7297,-155.09,80.8,78,75,4.61,broken clouds
132,Castro,BR,-24.7911,-50.0119,63.97,51,4,11.12,clear sky
133,Lamu,KE,-2.2717,40.902,78.93,78,39,20.2,scattered clouds
134,Zheleznogorsk-Ilimskiy,RU,56.5768,104.1217,37.31,64,91,3.13,overcast clouds
135,Alekseyevsk,RU,57.8406,108.3492,36.46,70,13,1.57,few clouds
136,Ateptsevo,RU,55.3236,36.75,57.27,96,0,5.97,clear sky
137,Tual,ID,-5.6667,132.75,82.04,81,100,24.02,overcast clouds
138,Port Blair,IN,11.6667,92.75,82.6,81,100,24.18,overcast clouds
139,Severo-Yeniseyskiy,RU,60.3725,93.0408,46.65,99,100,5.7,moderate rain
140,Coxim,BR,-18.5067,-54.76,69.01,93,100,6.02,overcast clouds
141,Hermanus,ZA,-34.4187,19.2345,64.06,56,100,7.92,overcast clouds
142,Dali,CN,25.7,100.1833,63.34,87,3,4.27,clear sky
143,Aljezur,PT,37.3191,-8.8033,59.49,68,0,18.45,clear sky
144,Kruisfontein,ZA,-34.0033,24.7314,60.87,32,22,7.14,few clouds
145,Sao Gabriel,BR,-30.3364,-54.32,55.63,69,100,19.39,overcast clouds
146,Red Bluff,US,40.1785,-122.2358,76.84,28,1,6.91,clear sky
147,Orangeburg,US,33.4918,-80.8557,91.4,29,1,5.75,clear sky
148,Gamba,GA,-2.65,10.0,77.05,88,100,6.69,overcast clouds
149,Stornoway,GB,58.2093,-6.3865,51.76,71,75,14.97,broken clouds
150,Batagay,RU,67.6333,134.6333,39.79,46,94,3.78,overcast clouds
151,Leningradskiy,RU,69.3833,178.4167,30.0,89,99,3.24,overcast clouds
152,Bubaque,GW,11.2833,-15.8333,79.14,76,100,16.62,overcast clouds
153,Hasaki,JP,35.7333,140.8333,55.8,87,72,3.51,broken clouds
154,La Ronge,CA,55.1001,-105.2842,55.65,54,90,9.22,overcast clouds
155,Paka,MY,4.6374,103.4368,78.73,90,44,5.19,scattered clouds
156,Puqi,CN,29.7167,113.8833,62.2,97,100,1.74,overcast clouds
157,Cidreira,BR,-30.1811,-50.2056,59.45,67,63,27.25,broken clouds
158,Kaitangata,NZ,-46.2817,169.8464,46.92,83,53,5.37,broken clouds
159,Chokurdakh,RU,70.6333,147.9167,27.59,97,100,4.59,overcast clouds
160,Alta Floresta,BR,-9.8756,-56.0861,91.22,55,20,3.44,few clouds
161,Airai,TL,-8.9266,125.4092,56.07,82,46,1.68,scattered clouds
162,Axim,GH,4.8699,-2.2405,80.71,80,9,8.59,clear sky
163,Mataram,ID,-8.5833,116.1167,76.01,88,42,5.5,scattered clouds
164,Asosa,ET,10.0667,34.5333,70.11,61,94,1.74,overcast clouds
165,Norman Wells,CA,65.282,-126.8329,50.04,87,90,8.05,moderate rain
166,Alice Springs,AU,-23.7,133.8833,45.95,38,0,6.89,clear sky
167,Ribeira Grande,PT,38.5167,-28.7,64.8,59,20,14.97,few clouds
168,Barra Do Garcas,BR,-15.89,-52.2567,81.18,56,0,8.16,light rain
169,Fairbanks,US,64.8378,-147.7164,49.23,64,90,4.61,overcast clouds
170,Orlik,RU,52.5178,99.825,34.11,96,97,2.59,light rain
171,Nantucket,US,41.2835,-70.0995,84.31,64,1,13.8,clear sky
172,Ucluelet,CA,48.9329,-125.5528,65.05,86,100,4.68,overcast clouds
173,Grand Gaube,MU,-20.0064,57.6608,73.8,78,9,4.0,clear sky
174,Biak,ID,-0.9131,122.8766,76.24,85,92,5.66,overcast clouds
175,Tiznit,MA,29.5833,-9.5,64.65,56,100,6.82,overcast clouds
176,Saint George,US,37.1041,-113.5841,75.67,20,1,1.99,clear sky
177,Saint Anthony,US,45.0205,-93.218,79.92,77,40,1.99,scattered clouds
178,Khyriv,UA,49.5333,22.8524,51.55,97,100,3.56,light rain
179,Arraial Do Cabo,BR,-22.9661,-42.0278,84.16,74,0,0.0,clear sky
180,Pinyug,RU,60.251,47.7842,56.48,78,100,5.06,overcast clouds
181,Tahlequah,US,35.9154,-94.97,82.62,54,90,6.91,overcast clouds
182,Lachi,PK,33.3833,71.3386,73.94,37,52,4.83,broken clouds
183,Talnakh,RU,69.4865,88.3972,36.23,100,100,3.36,light rain
184,Cubarral,CO,3.7935,-73.8406,76.46,89,100,3.04,overcast clouds
185,Bolshaya Sosnova,RU,57.6713,54.6029,59.58,63,100,5.14,light rain
186,Taguisa,PH,6.6983,124.0358,79.0,84,100,4.85,overcast clouds
187,Hokitika,NZ,-42.7167,170.9667,44.98,70,0,6.87,clear sky
188,Bambous Virieux,MU,-20.3428,57.7575,73.65,79,40,11.3,light rain
189,Saint-Joseph,RE,-21.3667,55.6167,71.96,83,80,11.83,light rain
190,Rocha,UY,-34.4833,-54.3333,55.76,92,100,23.04,overcast clouds
191,Itarema,BR,-2.9248,-39.9167,83.91,68,12,12.66,few clouds
192,New Norfolk,AU,-42.7826,147.0587,48.76,81,100,2.82,overcast clouds
193,Havre-Saint-Pierre,CA,50.2334,-63.5986,48.56,57,75,17.27,broken clouds
194,Kenai,US,60.5544,-151.2583,59.02,41,1,5.75,clear sky
195,Freeport,US,40.6576,-73.5832,92.1,45,40,1.99,scattered clouds
196,Quibor,VE,9.9287,-69.6201,72.57,49,100,12.44,overcast clouds
197,Vega De Alatorre,MX,20.0333,-96.6333,84.61,65,7,9.95,clear sky
198,Nanortalik,GL,60.1432,-45.2371,36.36,74,100,9.24,overcast clouds
199,Velizh,RU,55.6056,31.1967,46.58,98,39,5.32,scattered clouds
200,Carutapera,BR,-1.195,-46.02,83.25,77,100,8.75,overcast clouds
201,Chulym,RU,55.0997,80.9572,60.91,90,100,14.72,moderate rain
202,Espinosa,BR,-14.9261,-42.8192,93.27,22,91,2.01,overcast clouds
203,Sarakhs,IR,36.5449,61.1577,81.19,10,0,7.05,clear sky
204,Hobyo,SO,5.3505,48.5268,79.47,75,73,22.88,broken clouds
205,Kholm,RU,59.2667,32.85,49.69,92,100,8.86,overcast clouds
206,Sobolevo,RU,54.4299,31.8996,48.33,94,0,7.31,clear sky
207,Fuyang,CN,32.9,115.8167,60.94,87,92,4.29,light rain
208,San Jeronimo,PE,-11.9472,-75.2829,56.75,62,85,4.68,overcast clouds
209,Karasjok,NO,69.4719,25.5112,37.51,76,88,9.42,overcast clouds
210,Tuktoyaktuk,CA,69.4541,-133.0374,32.0,86,75,12.66,broken clouds
211,Usinsk,RU,65.9939,57.5281,37.18,55,98,22.7,overcast clouds
212,Cayenne,GF,4.9333,-52.3333,77.09,90,100,1.01,very heavy rain
213,San Andres,CO,12.5847,-81.7006,87.82,70,40,17.27,scattered clouds
214,Gigmoto,PH,13.7796,124.39,80.67,83,12,5.55,few clouds
215,Longyearbyen,SJ,78.2186,15.6401,28.24,59,20,16.11,few clouds
216,Deputatskiy,RU,69.3,139.9,24.08,86,12,3.18,few clouds
217,Dakar,SN,14.6937,-17.4441,74.28,78,75,16.11,broken clouds
218,Barrow,US,71.2906,-156.7887,30.2,86,90,18.41,overcast clouds
219,Challapata,BO,-18.9,-66.7667,53.83,13,100,8.39,overcast clouds
220,Sept-Iles,CA,50.2001,-66.3821,54.12,43,75,10.0,broken clouds
221,Carnarvon,AU,-24.8667,113.6333,59.07,100,94,2.3,overcast clouds
222,Svetlogorsk,BY,52.6333,29.7333,50.7,93,83,5.88,broken clouds
223,Winslow,US,35.0242,-110.6974,64.58,7,1,6.91,clear sky
224,Bereda,ES,43.2686,-7.5406,56.41,73,97,8.9,overcast clouds
225,Luanda,AO,-8.8368,13.2343,78.8,83,0,6.91,clear sky
226,Mount Isa,AU,-20.7333,139.5,53.37,66,3,0.0,clear sky
227,San Quintin,MX,30.4833,-115.95,67.19,48,0,13.8,clear sky
228,Chadan,RU,51.2833,91.5833,46.54,78,8,4.14,clear sky
229,Yar-Sale,RU,66.8333,70.8333,51.87,67,91,21.63,light rain
230,Bukachacha,RU,52.9833,116.9167,35.87,74,100,11.54,overcast clouds
231,Lander,US,42.833,-108.7307,59.05,38,1,35.68,clear sky
232,Forio,IT,40.7342,13.8646,72.43,78,34,1.01,scattered clouds
233,Kattivakkam,IN,13.2167,80.3167,86.07,71,100,15.64,overcast clouds
234,Saint-Jean-De-La-Ruelle,FR,47.9113,1.8648,60.46,67,0,12.48,clear sky
235,Alugan,PH,12.2188,125.4808,80.98,81,12,2.95,few clouds
236,Baykit,RU,61.67,96.37,43.27,98,100,3.91,overcast clouds
237,Leh,IN,34.1667,77.5833,41.34,93,100,4.9,overcast clouds
238,Svetlaya,RU,46.5389,138.3297,46.99,90,5,3.09,clear sky
239,Pacific Grove,US,36.6177,-121.9166,71.58,72,20,4.0,few clouds
240,Ancud,CL,-41.8697,-73.8203,57.22,96,100,19.84,heavy intensity rain
241,Kodinsk,RU,58.6881,99.1844,46.67,87,100,4.99,overcast clouds
242,Dongsheng,CN,39.8161,109.9776,46.15,24,0,9.6,clear sky
243,Vilhena,BR,-12.7406,-60.1458,75.42,94,75,12.66,broken clouds
244,Ilulissat,GL,69.2167,-51.1,42.82,26,58,12.66,broken clouds
245,Constitucion,CL,-35.3333,-72.4167,60.58,58,4,14.41,clear sky
246,Kandrian,PG,-6.2167,149.55,77.85,89,100,7.72,light rain
247,Puerto Escondido,MX,15.85,-97.0667,88.63,70,1,0.0,clear sky
248,Turtas,RU,58.9417,69.1325,56.34,68,100,6.17,overcast clouds
249,Khani,GE,41.9563,42.9566,49.57,99,100,2.73,light rain
250,Sakakah,SA,29.9697,40.2064,81.97,19,0,10.78,clear sky
251,Pangkalanbuun,ID,-2.6833,111.6167,73.71,94,97,1.41,overcast clouds
252,Upernavik,GL,72.7868,-56.1549,30.74,83,20,6.64,few clouds
253,Riberalta,BO,-10.9833,-66.1,84.34,82,100,2.21,overcast clouds
254,North Bend,US,43.4065,-124.2243,67.95,72,90,6.91,overcast clouds
255,Grindavik,IS,63.8424,-22.4338,48.56,68,75,14.25,light rain
256,Lata,PT,40.1629,-8.3327,58.93,68,10,9.26,clear sky
257,Husavik,IS,66.0449,-17.3389,40.91,98,100,10.02,overcast clouds
258,La Romana,DO,18.4273,-68.9728,89.96,55,40,6.91,scattered clouds
259,Santa Cruz,BO,-17.8,-63.1667,66.9,37,100,10.6,overcast clouds
260,Chara,RU,56.9064,118.2631,34.32,84,100,6.42,light rain
261,Disna,BY,55.568,28.1971,48.99,96,100,8.12,overcast clouds
262,Lompoc,US,34.6391,-120.4579,72.01,66,1,11.5,clear sky
263,Samarai,PG,-10.6167,150.6667,78.78,77,100,17.83,overcast clouds
264,Guerrero Negro,MX,27.9769,-114.0611,68.86,48,0,17.18,clear sky
265,Puerto Madryn,AR,-42.7692,-65.0385,58.21,50,99,8.68,overcast clouds
266,Sitka,US,57.0531,-135.33,48.09,76,75,3.44,light rain
267,Tocopilla,CL,-22.092,-70.1979,67.5,69,98,3.67,overcast clouds
268,Ust-Maya,RU,60.4167,134.5333,43.34,60,100,6.82,overcast clouds
269,Asfi,MA,32.2994,-9.2372,64.9,56,0,27.45,clear sky
270,Fuxin,CN,42.0156,121.6589,56.41,18,45,6.76,scattered clouds
271,Pisco,PE,-13.7,-76.2167,68.05,73,0,12.66,clear sky
272,Thompson,CA,55.7435,-97.8558,59.16,38,1,8.05,clear sky
273,Ahuimanu,US,21.4447,-157.8378,80.78,78,40,11.5,scattered clouds
274,Arona,ES,28.0996,-16.681,64.33,61,20,8.01,few clouds
275,Bandarbeyla,SO,9.4942,50.8122,81.01,77,100,26.11,overcast clouds
276,Katangli,RU,51.7102,143.2326,34.05,95,100,7.81,overcast clouds
277,Saskylakh,RU,71.9167,114.0833,37.2,89,100,14.83,overcast clouds
278,Vestmanna,FO,62.1564,-7.1664,45.52,73,75,9.28,broken clouds
279,Porto Novo,BJ,6.4965,2.6036,82.22,74,100,5.59,overcast clouds
280,Egvekinot,RU,66.3167,-179.1667,29.37,86,100,4.63,overcast clouds
281,Canto Do Buriti,BR,-8.11,-42.9444,94.41,27,100,8.5,overcast clouds
282,Okhotsk,RU,59.3833,143.3,31.37,92,100,2.42,overcast clouds
283,Hervey Bay,AU,-25.2986,152.8535,61.03,89,5,3.0,clear sky
284,Zaysan,KZ,47.4667,84.8667,58.35,54,0,5.57,clear sky
285,Yaan,NG,7.3833,8.5667,81.73,65,80,3.91,light rain
286,Tokur,RU,53.1333,132.9,34.5,99,100,4.18,moderate rain
287,Cascavel,BR,-24.9558,-53.4553,61.23,37,0,11.5,clear sky
288,Neuquen,AR,-38.9516,-68.0591,64.29,48,0,5.75,clear sky
289,Ware,GB,51.8126,-0.0283,54.55,81,75,5.99,light rain
290,Bastia,FR,42.6667,9.3333,64.29,82,75,1.83,broken clouds
291,San Ignacio,BZ,17.1561,-89.0714,91.54,67,75,7.65,broken clouds
292,Clyde River,CA,70.4692,-68.5914,21.43,86,90,17.27,overcast clouds
293,Porto Santo,PT,33.072,-16.3415,66.31,55,40,14.97,scattered clouds
294,Utevka,RU,52.9035,50.9495,81.82,22,80,19.62,broken clouds
295,Muros,ES,42.7762,-9.0603,58.08,89,100,16.28,overcast clouds
296,Kailua,US,21.4022,-157.7394,81.07,78,40,11.5,scattered clouds
297,Eyemouth,GB,55.8713,-2.0901,49.23,83,100,20.09,moderate rain
298,Naberera,TZ,-4.2,36.9333,59.31,89,87,8.23,overcast clouds
299,Namuac,PH,18.6109,121.1657,80.37,82,0,8.61,clear sky
300,Komsomolskiy,UZ,40.4272,71.7189,74.12,33,100,6.91,overcast clouds
301,Lishu,CN,43.3047,124.3278,47.59,90,0,11.27,clear sky
302,Kamenka,RU,51.3223,42.7678,60.8,96,22,6.98,few clouds
303,Mezhova,UA,48.2532,36.7347,59.76,78,0,7.31,clear sky
304,Chicama,PE,-7.8447,-79.1469,66.74,65,11,10.25,few clouds
305,Platteville,US,42.7342,-90.4785,78.58,88,90,4.61,overcast clouds
306,Haifa,IL,32.8156,34.9892,72.54,68,20,8.05,few clouds
307,Jiuquan,CN,39.7432,98.5174,52.56,20,0,3.09,clear sky
308,Ornskoldsvik,SE,63.2909,18.7153,42.62,77,90,1.9,overcast clouds
309,Beyneu,KZ,45.3167,55.2,81.79,20,0,9.89,clear sky
310,Edd,ER,13.9297,41.6925,91.87,48,0,6.33,clear sky
311,Georgetown,MY,5.4112,100.3354,82.89,84,20,1.01,few clouds
312,Padang,ID,-0.9492,100.3543,78.35,86,49,3.15,scattered clouds
313,Corner Brook,CA,48.9667,-57.9484,42.96,98,100,3.74,light rain
314,Fare,PF,-16.7,-151.0167,81.01,74,33,14.2,scattered clouds
315,Raymond,US,43.9015,-70.4703,73.35,72,100,15.19,overcast clouds
316,San Cristobal,VE,7.7669,-72.225,84.38,57,97,6.04,overcast clouds
317,Laem Sing,TH,12.4816,102.0738,81.05,78,98,14.52,light rain
318,Abaete,BR,-19.16,-45.4458,82.65,42,100,9.93,moderate rain
319,Luganville,VU,-15.5333,167.1667,75.31,79,100,6.29,overcast clouds
320,Penha,BR,-26.7694,-48.6458,75.07,43,0,7.63,clear sky
321,Kemijarvi,FI,66.7131,27.4306,36.41,83,93,9.4,overcast clouds
322,Khasan,RU,42.4308,130.6434,57.6,63,100,12.93,overcast clouds
323,Shieli,KZ,44.1667,66.75,79.92,22,4,18.66,clear sky
324,Narsaq,GL,60.9167,-46.05,43.02,70,100,5.08,overcast clouds
325,Westport,US,41.1415,-73.3579,90.36,52,75,1.99,broken clouds
326,Ofaqim,IL,31.3141,34.6203,69.75,72,6,7.43,clear sky
327,Srednekolymsk,RU,67.45,153.6833,45.12,55,17,6.87,few clouds
328,Lodja,CD,-3.4833,23.4333,72.73,87,51,3.83,broken clouds
329,Port Lincoln,AU,-34.7333,135.8667,66.72,44,100,20.13,overcast clouds
330,Russell,US,32.3502,-85.1999,89.38,29,1,1.32,clear sky
331,Sabang,ID,5.8933,95.3214,84.67,74,100,17.05,overcast clouds
332,Karatau,KZ,43.1667,70.4667,66.11,42,99,4.0,overcast clouds
333,Podgornoye,RU,51.735,39.1496,62.82,68,0,7.18,clear sky
334,Moree,AU,-29.4667,149.85,50.02,76,0,8.05,clear sky
335,Nakhon Phanom,TH,17.3333,104.4167,79.3,77,88,4.92,overcast clouds
336,Grenaa,DK,56.4158,10.8783,52.02,75,58,19.13,broken clouds
337,Ratnagiri,IN,16.9833,73.3,82.31,79,13,7.11,few clouds
338,Vostok,RU,46.4856,135.8833,49.48,72,98,4.65,overcast clouds
339,Shahpur,IN,16.7,76.8333,87.1,47,100,11.3,overcast clouds
340,Kuna,US,43.4918,-116.4201,57.85,71,90,4.0,overcast clouds
341,Rio Grande,BR,-32.035,-52.0986,59.11,86,100,29.1,overcast clouds
342,Flin Flon,CA,54.7682,-101.865,53.44,44,20,8.48,few clouds
343,Mizan Teferi,ET,6.9833,35.5833,61.79,97,98,1.48,overcast clouds
344,Megion,RU,61.0296,76.1136,53.62,55,9,8.86,clear sky
345,Sandane,NO,61.7728,6.215,54.57,76,75,3.44,broken clouds
346,Beatrice,US,40.2681,-96.747,83.84,62,90,4.0,overcast clouds
347,Ziro,IN,27.6333,93.8333,56.32,94,2,2.15,clear sky
348,Goderich,CA,43.7501,-81.7165,63.21,77,100,13.8,overcast clouds
349,Monteria,CO,8.748,-75.8814,84.87,74,100,4.76,overcast clouds
350,Berbera,SO,10.4396,45.0143,90.52,59,85,1.41,overcast clouds
351,Raga,SS,8.4596,25.678,81.3,29,100,5.53,overcast clouds
352,Gazli,UZ,40.1333,63.45,81.86,19,0,4.59,clear sky
353,Abu Dhabi,AE,24.4667,54.3667,89.71,60,0,7.96,clear sky
354,Bilma,NE,18.6853,12.9164,93.27,8,0,3.53,clear sky
355,Lebu,CL,-37.6167,-73.65,55.18,70,100,5.64,overcast clouds
356,Lagoa,PT,39.05,-27.9833,60.76,65,1,10.25,clear sky
357,Selma,US,36.5708,-119.6121,80.1,19,0,5.59,clear sky
358,Chuy,UY,-33.6971,-53.4616,54.55,90,100,22.1,overcast clouds
359,Xinzhou,CN,38.4092,112.7333,52.83,23,0,2.98,clear sky
360,Iguape,BR,-24.7081,-47.5553,77.81,70,20,10.25,few clouds
361,Hay River,CA,60.8156,-115.7999,58.98,36,40,11.5,scattered clouds
362,Geraldton,AU,-28.7667,114.6,59.41,66,40,25.66,scattered clouds
363,Balkanabat,TM,39.5108,54.3671,87.82,7,0,11.27,clear sky
364,Ko Samui,TH,9.5357,99.9357,85.05,69,100,12.8,overcast clouds
365,Morristown,US,36.214,-83.2949,88.21,39,1,6.91,clear sky
366,Villa Bruzual,VE,9.3328,-69.1208,87.31,61,100,1.59,overcast clouds
367,Balyaga,RU,51.1507,108.921,37.22,65,97,8.77,overcast clouds
368,Abay,KZ,49.6311,72.8539,48.58,38,27,6.51,scattered clouds
369,Talara,PE,-4.5772,-81.2719,81.36,54,0,11.5,clear sky
370,Sibu,MY,2.3,111.8167,77.31,96,40,2.24,scattered clouds
371,Kununurra,AU,-15.7667,128.7333,66.18,94,1,0.0,clear sky
372,Esperance,AU,-33.8667,121.9,54.84,68,100,24.07,moderate rain
373,The Valley,AI,18.217,-63.0578,85.86,74,20,14.97,few clouds
374,Naryan-Mar,RU,67.6713,53.087,33.13,59,40,12.28,scattered clouds
375,Omboue,GA,-1.5746,9.2618,77.52,90,100,7.16,overcast clouds
376,Ca Mau,VN,9.1769,105.15,79.43,83,100,10.54,overcast clouds
377,Winnemucca,US,40.973,-117.7357,51.85,48,90,16.51,overcast clouds
378,Wawa,NG,9.9022,4.4192,81.86,64,52,10.04,light rain
379,Chernyshevskiy,RU,63.0128,112.4714,36.79,63,5,2.08,clear sky
380,Coahuayana,MX,18.7333,-103.6833,98.08,37,52,8.43,broken clouds
381,Talaya,RU,61.3833,152.75,36.99,75,35,3.44,scattered clouds
382,Vanavara,RU,60.34,102.2797,40.19,75,89,4.18,overcast clouds
383,Batemans Bay,AU,-35.7167,150.1833,55.9,93,27,3.8,scattered clouds
384,Bukama,CD,-9.2,25.85,67.69,50,1,3.22,clear sky
385,Verkhnevilyuysk,RU,63.4453,120.3167,36.54,59,4,3.78,clear sky
386,Inhambane,MZ,-23.865,35.3833,67.98,73,20,4.61,few clouds
387,Cairns,AU,-16.9167,145.7667,71.55,91,90,10.36,overcast clouds
388,Hamilton,US,39.1834,-84.5333,86.77,56,90,3.0,overcast clouds
389,Brownwood,US,31.7093,-98.9912,80.37,61,100,13.38,overcast clouds
390,Matay,EG,28.419,30.7792,78.53,32,0,23.02,clear sky
391,Baranain,ES,42.8057,-1.6773,58.14,59,20,8.05,few clouds
392,San Patricio,US,28.017,-97.5169,87.03,64,93,7.0,overcast clouds
393,Doha,QA,25.2867,51.5333,95.31,52,0,5.75,clear sky
394,Waingapu,ID,-9.6567,120.2641,75.27,86,43,4.9,scattered clouds
395,Mehamn,NO,71.0357,27.8492,36.82,56,25,3.71,scattered clouds
396,Lavrentiya,RU,65.5833,-171.0,31.78,92,100,4.41,overcast clouds
397,Saint-Pierre,RE,-21.3393,55.4781,73.04,93,75,6.91,moderate rain
398,Kharp,RU,66.8014,65.8081,47.93,71,80,19.53,broken clouds
399,Marzuq,YE,14.4,46.4667,81.55,22,58,7.94,broken clouds
400,Hami,CN,42.8,93.45,65.1,17,0,6.08,clear sky
401,Along,IN,28.1667,94.7667,71.4,95,11,2.1,few clouds
402,Urucara,BR,-2.5364,-57.76,85.62,67,100,3.36,overcast clouds
403,Awjilah,LY,29.1081,21.2869,81.46,16,0,10.25,clear sky
404,Shenzhen,CN,22.5455,114.0683,86.27,82,17,3.44,few clouds
405,Sao Joao Da Barra,BR,-21.6403,-41.0511,82.49,73,100,9.84,overcast clouds
406,Sibolga,ID,1.7427,98.7792,76.86,90,54,3.51,broken clouds
407,Benalla,AU,-36.55,145.9833,51.3,75,100,4.85,overcast clouds
408,Matara,LK,5.9485,80.5353,80.11,89,100,11.95,overcast clouds
409,Vila Velha,BR,-20.3297,-40.2925,84.96,65,0,11.01,clear sky
410,Iqaluit,CA,63.7506,-68.5145,20.93,62,75,20.0,broken clouds
411,Tarakan,ID,3.3,117.6333,79.47,82,100,6.38,light rain
412,Magan,ES,39.9683,-3.931,64.92,46,42,8.03,scattered clouds
413,Rawson,AR,-43.3002,-65.1023,58.03,53,58,10.42,broken clouds
414,Taunggyi,MM,20.7833,97.0333,68.38,77,97,3.71,overcast clouds
415,Jumla,NP,29.2747,82.1838,54.03,93,0,4.45,clear sky
416,Berlevag,NO,70.8578,29.0864,35.4,67,40,1.5,scattered clouds
417,Pevek,RU,69.7008,170.3133,27.63,85,13,4.09,few clouds
418,Prieska,ZA,-29.6641,22.7474,59.92,20,69,6.62,broken clouds
419,Uporovo,RU,56.3109,66.2693,61.88,90,78,6.26,broken clouds
420,Tiksi,RU,71.6872,128.8694,26.37,79,60,8.72,broken clouds
421,Bengkulu,ID,-3.8004,102.2655,76.06,91,100,3.56,overcast clouds
422,Lalmohan,BD,22.3384,90.7419,85.8,75,100,15.66,moderate rain
423,Rivne,UA,50.6231,26.2274,52.75,82,100,3.85,overcast clouds
424,Huarmey,PE,-10.0681,-78.1522,71.06,73,13,10.02,few clouds
425,Kuybyshevo,RU,47.8123,38.9073,66.51,66,40,6.93,scattered clouds
426,Kichera,RU,55.9375,110.0997,37.6,61,61,4.61,broken clouds
427,Skjervoy,NO,70.0311,20.9714,39.13,55,11,11.43,few clouds
428,Finschhafen,PG,-6.6024,147.8681,77.9,85,100,6.22,light rain
429,Codrington,AU,-38.2667,141.9667,54.5,67,100,10.69,overcast clouds
430,Belogorsk,RU,50.9158,128.4611,49.24,86,100,16.44,overcast clouds
431,Sioux Lookout,CA,50.1001,-91.917,55.47,54,75,11.5,broken clouds
432,Akdagmadeni,TR,39.6603,35.8836,44.65,96,99,3.83,overcast clouds
433,Kendal,GB,54.3268,-2.7476,49.1,95,100,14.83,moderate rain
434,Sheboygan,US,43.7333,-87.9334,53.6,87,90,14.97,overcast clouds
435,Vilyuysk,RU,63.7553,121.6247,36.07,55,3,3.74,clear sky
436,Zhigansk,RU,66.7697,123.3711,36.57,53,1,7.2,clear sky
437,Sayyan,YE,15.1718,44.3244,66.33,51,39,4.07,scattered clouds
438,Hornepayne,CA,49.2138,-84.7705,53.47,41,20,9.33,few clouds
439,Flinders,AU,-34.5833,150.8552,60.21,95,94,1.01,overcast clouds
440,Gerash,IR,27.6652,54.1371,91.54,18,2,6.87,clear sky
441,Pemangkat,ID,1.1667,108.9667,78.1,89,100,4.05,overcast clouds
442,Saint-Georges,GD,12.0564,-61.7485,85.68,70,75,27.63,broken clouds
443,Coffs Harbour,AU,-30.3,153.1333,57.16,82,90,9.22,overcast clouds
444,Auki,SB,-8.7676,160.7034,76.78,90,100,10.29,heavy intensity rain
445,Alofi,NU,-19.0595,-169.9187,78.8,94,13,4.61,few clouds
446,Klaksvik,FO,62.2266,-6.589,47.32,74,84,6.93,broken clouds
447,Vestmannaeyjar,IS,63.4427,-20.2734,47.39,71,40,8.05,scattered clouds
448,Linhares,BR,-19.3911,-40.0722,85.26,44,100,6.51,overcast clouds
449,Kalmar,SE,56.6616,16.3616,51.96,75,90,6.91,overcast clouds
450,Ust-Nera,RU,64.5667,143.2,36.95,92,99,2.28,overcast clouds
451,La Asuncion,VE,11.0333,-63.8628,91.13,77,17,18.12,few clouds
452,Camacha,PT,33.0833,-16.3333,63.54,55,40,14.97,scattered clouds
453,Champasak,LA,14.75,106.0,73.92,98,100,3.15,overcast clouds
454,Araouane,ML,18.9048,-3.5265,101.35,13,12,8.37,few clouds
455,Middelburg,ZA,-25.7751,29.4648,52.27,59,0,3.02,clear sky
456,Nome,US,64.5011,-165.4064,37.17,80,90,5.75,overcast clouds
457,Baculin,PH,7.4525,126.5842,78.22,84,100,4.23,overcast clouds
458,Dargaville,NZ,-35.9333,173.8833,56.68,68,100,14.45,overcast clouds
459,Gunupur,IN,19.0833,83.8167,84.63,60,100,1.36,overcast clouds
460,Arcachon,FR,44.5875,-1.0519,61.41,63,0,2.3,clear sky
461,Apollonia,GR,36.9716,24.7231,69.93,62,0,9.84,clear sky
462,Atambua,ID,-9.1061,124.8925,69.48,87,16,4.88,few clouds
463,Tashtyp,RU,52.7939,89.8983,49.91,90,68,5.73,broken clouds
464,Perth,AU,-31.9333,115.8333,50.18,95,75,20.31,broken clouds
465,Port Hardy,CA,50.6996,-127.4199,57.38,72,75,10.36,broken clouds
466,Orzu,TJ,37.5593,68.8184,68.4,27,0,3.18,clear sky
467,Boa Vista,BR,2.8197,-60.6733,91.38,55,75,9.22,broken clouds
468,Svetlyy,RU,54.675,20.1347,50.05,81,95,6.67,overcast clouds
469,Namibe,AO,-15.1961,12.1522,73.69,83,56,5.14,broken clouds
470,Illapel,CL,-31.6308,-71.1653,72.99,15,100,4.99,overcast clouds
471,Campoalegre,CO,2.6849,-75.3231,85.28,69,75,0.38,broken clouds
472,Noumea,NC,-22.2763,166.4572,70.0,99,65,7.49,broken clouds
473,Tarauaca,BR,-8.1614,-70.7656,82.67,83,43,1.1,light rain
474,Juliaca,PE,-15.5,-70.1333,53.6,26,75,6.91,broken clouds
475,Puerto Ayacucho,VE,5.6639,-67.6236,87.31,70,48,4.07,scattered clouds
476,Sola,VU,-13.8833,167.55,78.84,78,100,19.44,overcast clouds
477,Marsaxlokk,MT,35.8419,14.5431,72.09,94,20,11.5,few clouds
478,Lorengau,PG,-2.0226,147.2712,79.7,82,88,4.59,overcast clouds
479,Bulaevo,KZ,54.9056,70.4439,63.59,83,100,7.45,light rain
480,Bonavista,CA,48.6499,-53.1147,53.11,96,100,13.0,moderate rain
481,Juegang,CN,32.3174,121.1855,61.61,87,100,6.04,overcast clouds
482,Nenjiang,CN,49.1833,125.2167,44.82,62,18,12.3,few clouds
483,Pashiya,RU,58.4324,58.2562,55.24,70,100,1.77,overcast clouds
484,Uyaan,PH,7.8631,124.0411,63.45,92,68,2.62,broken clouds
485,Paragominas,BR,-2.9667,-47.4833,81.9,79,100,3.29,overcast clouds
486,Mersing,MY,2.4312,103.8405,78.71,94,100,4.61,overcast clouds
487,Batagay-Alyta,RU,67.8006,130.4114,29.34,73,14,4.07,few clouds
488,Kaeo,NZ,-35.1,173.7833,56.32,74,99,13.49,overcast clouds
489,Kirakira,SB,-10.4544,161.9205,76.32,94,100,7.96,light rain
490,Te Anau,NZ,-45.4167,167.7167,40.33,94,22,4.07,few clouds
491,Balarampur,IN,23.1167,86.2167,88.45,38,18,6.08,few clouds
492,Vao,NC,-22.6667,167.4833,71.31,60,1,15.64,clear sky
493,Atar,MR,20.5169,-13.0499,100.89,14,2,12.41,clear sky
494,Teya,RU,60.3778,92.6267,50.45,99,100,5.23,moderate rain
495,Henties Bay,NA,-22.116,14.2845,75.58,42,0,8.37,clear sky
496,Thai Binh,VN,20.45,106.3333,84.2,87,83,7.67,broken clouds
497,Niquero,CU,20.0431,-77.5828,82.44,66,87,9.31,light rain
498,Rio Muerto,MX,27.4167,-110.2333,91.92,21,0,10.38,clear sky
499,Kimberley,ZA,-28.7323,24.7623,49.69,46,29,8.05,scattered clouds
500,Monrovia,LR,6.3005,-10.7969,83.97,78,98,8.32,overcast clouds
501,Nhulunbuy,AU,-12.2333,136.7667,75.81,83,40,6.91,scattered clouds
502,Tilichiki,RU,60.4667,166.1,31.5,87,100,8.01,overcast clouds
503,Urdoma,RU,61.7533,48.5442,55.71,54,36,3.76,scattered clouds
504,Kangaatsiaq,GL,68.3065,-53.4641,36.19,59,12,19.17,few clouds
505,Hammerfest,NO,70.6634,23.6821,37.85,52,75,8.05,broken clouds
506,Bud,US,39.447,-86.1758,86.49,62,100,6.31,overcast clouds
507,Cascais,PT,38.6979,-9.4215,62.46,57,40,13.0,scattered clouds
508,Plettenberg Bay,ZA,-34.0527,23.3716,62.62,46,8,6.62,clear sky
509,Nagaur,IN,27.2,73.7333,86.77,41,0,4.27,clear sky
510,Suntar,RU,62.1444,117.6319,37.81,67,9,3.83,clear sky
511,Hambantota,LK,6.1241,81.1185,81.72,82,100,16.73,overcast clouds
512,Necochea,AR,-38.5473,-58.7368,56.26,70,100,19.84,overcast clouds
513,Alwar,IN,27.5667,76.6,83.5,41,0,4.59,clear sky
514,Pelym,RU,61.0108,61.9978,57.6,53,0,6.42,clear sky
515,Tura,IN,25.5198,90.2201,79.39,69,0,3.24,clear sky
516,Nanakuli,US,21.3906,-158.1547,81.03,69,1,3.71,clear sky
517,Mnogovershinnyy,RU,53.9353,139.9242,31.3,98,78,6.49,broken clouds
518,Labuhan,ID,-6.8844,112.2051,78.39,85,86,4.18,overcast clouds
519,Vila Franca Do Campo,PT,37.7167,-25.4333,63.01,64,85,5.17,overcast clouds
520,Ossora,RU,59.2353,163.0719,34.12,84,5,5.79,clear sky
521,Port Dover,CA,42.7834,-80.1997,79.59,71,100,10.45,overcast clouds
522,Warri,NG,5.5167,5.75,79.25,83,87,5.75,overcast clouds
523,Manjeshwar,IN,12.7194,74.8861,81.55,81,64,1.52,broken clouds
524,Olinda,BR,-8.0089,-34.8553,80.33,71,40,10.11,scattered clouds
525,Loiza,PR,18.4313,-65.8802,83.8,74,75,13.35,broken clouds
526,Istok,XK,42.7808,20.4875,74.32,77,67,3.4,broken clouds
527,Qandala,SO,11.472,49.8728,86.07,72,47,5.3,scattered clouds
528,Pangody,RU,65.85,74.4859,51.8,83,97,13.82,light rain
529,Buncrana,IE,55.1333,-7.45,49.82,81,60,3.98,broken clouds
530,Tuy Hoa,VN,13.0833,109.3,77.59,90,100,5.82,overcast clouds
531,Boleslawiec,PL,51.2642,15.5697,53.02,91,0,6.33,clear sky
532,Tacuati,PY,-23.45,-56.5833,72.73,22,0,6.38,clear sky
533,Wanaka,NZ,-44.7,169.15,40.62,84,53,4.9,broken clouds
534,Richards Bay,ZA,-28.783,32.0377,64.2,79,0,8.97,clear sky
535,Great Bend,US,38.3645,-98.7648,75.33,75,90,8.99,overcast clouds
536,Malm,NO,64.0721,11.2172,55.78,74,99,5.75,overcast clouds
537,Waipawa,NZ,-41.4122,175.5153,50.63,80,100,17.83,overcast clouds
538,Teguldet,RU,57.3064,88.1667,57.81,94,100,9.89,overcast clouds
539,Coihueco,CL,-36.6167,-71.8333,57.94,46,0,6.98,clear sky
540,Corinto,GR,37.9407,22.9573,74.03,49,0,1.5,clear sky
541,Aksu,CN,41.1231,80.2644,68.85,24,80,3.06,broken clouds
542,Aitape,PG,-3.1374,142.3475,77.76,88,100,4.41,moderate rain
543,Vredendal,ZA,-31.6683,18.5012,70.48,23,8,10.4,clear sky
544,Batticaloa,LK,7.7102,81.6924,81.16,79,86,4.74,overcast clouds
545,Maceio,BR,-9.6658,-35.7353,83.64,69,20,9.15,few clouds
546,Shimoda,JP,34.6667,138.95,67.1,79,64,3.56,broken clouds
547,College,US,64.8569,-147.8028,48.65,61,75,3.44,broken clouds
548,Bahia Blanca,AR,-38.7196,-62.2724,58.41,55,0,9.98,clear sky
549,Yangambi,CD,0.8102,24.4336,69.24,97,98,2.04,overcast clouds
550,Tingi,TZ,-11.3,35.0333,57.87,85,57,0.85,broken clouds
551,Umm Kaddadah,SD,13.6017,26.6876,84.54,11,7,12.59,clear sky
552,Ayan,RU,56.45,138.1667,32.9,99,100,14.65,light snow
553,Malakal,SS,9.5334,31.6605,85.33,48,43,4.97,scattered clouds
554,San Juan De Uraba,CO,8.7592,-76.5297,84.54,75,100,9.06,overcast clouds
555,Sao Jose Da Coroa Grande,BR,-8.8978,-35.1478,80.65,69,1,7.47,clear sky
556,Port Hedland,AU,-20.3167,118.5667,68.05,77,24,10.36,few clouds
557,Najran,SA,17.4924,44.1277,86.65,28,0,5.57,clear sky
558,Lasa,IT,46.6166,10.7002,56.28,91,100,2.08,overcast clouds
559,Kibala,TD,9.1104,18.3463,84.15,58,20,6.91,few clouds
560,Yumen,CN,40.2833,97.2,53.62,18,0,7.85,clear sky
561,Staryy Nadym,RU,65.6118,72.6842,53.96,73,58,16.46,broken clouds
562,Carroll,US,39.5501,-77.0164,91.02,45,40,5.99,scattered clouds
563,Vidim,RU,56.4088,103.1106,36.32,75,58,3.2,broken clouds
564,Olafsvik,IS,64.8945,-23.7142,42.19,74,12,19.1,few clouds
565,Zabid,YE,14.1951,43.3152,94.19,38,74,1.66,broken clouds
566,Kashi,CN,39.4547,75.9797,69.01,21,40,4.7,scattered clouds
567,Mitsamiouli,KM,-11.3847,43.2844,78.8,66,21,11.56,few clouds
568,Hoquiam,US,46.9809,-123.8893,58.53,87,90,11.5,overcast clouds
569,Nha Trang,VN,12.25,109.1833,78.8,89,100,5.46,overcast clouds
570,Tsabong,BW,-26.0217,22.401,63.19,39,3,10.63,clear sky
571,Kyren,RU,51.6828,102.1408,33.84,85,59,2.71,broken clouds
572,Gaya,IN,24.7833,85.0,92.07,29,6,2.39,clear sky
573,Paamiut,GL,61.994,-49.6678,35.49,72,100,24.18,overcast clouds
574,Nsanje,MW,-16.92,35.262,66.34,95,100,2.35,overcast clouds
575,Mangrol,IN,21.1167,70.1167,84.24,76,0,11.61,clear sky
576,Asau,RO,46.4333,26.4,67.12,84,71,4.29,broken clouds
577,Luangwa,ZM,-15.6167,30.4167,70.72,63,63,8.93,broken clouds
578,Yambio,SS,4.5721,28.3955,67.87,98,100,1.48,moderate rain
579,Mozzozzin,PH,17.45,121.75,77.18,87,0,4.47,clear sky
580,Umtata,ZA,-31.5889,28.7844,52.61,42,42,4.9,scattered clouds
581,Torbay,CA,47.6666,-52.7314,54.75,81,90,34.52,light rain
582,Andenes,NO,69.3143,16.1194,40.98,65,6,21.85,clear sky
583,Manzhouli,CN,49.6,117.4333,36.54,62,52,22.03,broken clouds
584,Mayor Pablo Lagerenza,PY,-19.9309,-60.7718,70.52,24,99,6.51,overcast clouds
585,Chon Daen,TH,16.1895,100.8596,83.57,68,9,0.72,clear sky
586,Parambu,BR,-6.2111,-40.6944,87.73,41,48,6.96,scattered clouds
587,Yarim,YE,14.298,44.3779,61.81,51,10,6.06,clear sky
588,Sikonge,TZ,-5.6333,32.7667,66.11,63,0,4.0,clear sky
589,Belle Glade,US,26.6845,-80.6676,85.98,41,9,12.08,clear sky
590,San Luis,AR,-33.295,-66.3356,56.84,33,0,7.29,clear sky
591,Buritizeiro,BR,-17.3511,-44.9622,89.17,30,94,6.93,overcast clouds
592,Mitu,CO,1.1983,-70.1733,86.34,71,47,1.23,scattered clouds
593,Karratha,AU,-20.7377,116.8463,74.16,57,97,11.86,overcast clouds
594,Havelock,US,34.8791,-76.9013,95.05,37,40,1.01,scattered clouds
595,Buchanan,LR,5.8808,-10.0467,84.16,79,45,7.11,scattered clouds
596,Superior,US,46.7208,-92.1041,42.62,89,90,17.27,overcast clouds
597,Banda Aceh,ID,5.5577,95.3222,81.48,80,100,10.89,overcast clouds
598,Palmer,US,42.1584,-72.3287,87.03,55,75,1.99,broken clouds
599,Vardo,NO,70.3705,31.1107,35.35,61,19,6.31,few clouds
600,Mahibadhoo,MV,3.7833,72.9667,83.97,76,100,14.76,overcast clouds
601,Dolores,AR,-36.3132,-57.6792,56.88,74,100,19.06,moderate rain
602,Xining,CN,36.6167,101.7667,42.17,79,3,2.51,clear sky
603,Sao Sebastiao,BR,-23.76,-45.4097,75.81,84,100,2.59,overcast clouds
604,Faro,PT,37.0194,-7.9322,67.78,42,0,16.11,clear sky
605,Beloha,MG,-25.1667,45.05,63.43,93,1,5.46,clear sky
606,Isiro,CD,2.7739,27.616,66.7,99,100,2.98,overcast clouds
607,Caiaponia,BR,-16.9567,-51.8103,76.8,72,100,6.29,heavy intensity rain
608,Taoudenni,ML,22.6783,-3.9836,105.53,11,0,3.91,clear sky
609,Cuenca,EC,-2.8833,-78.9833,66.33,55,75,10.36,light rain
610,Roald,NO,62.5833,6.1333,57.25,87,75,2.3,light rain
611,Hudiksvall,SE,61.729,17.1036,39.52,80,38,4.79,scattered clouds
612,Midrand,ZA,-25.9636,28.1378,53.4,51,97,3.74,overcast clouds
613,Robat Karim,IR,35.4846,51.0829,80.46,22,40,13.8,scattered clouds
614,Zhongshan,CN,21.3226,110.5829,80.94,90,63,7.09,broken clouds
615,Guerrero,MX,17.6667,-100.0,89.74,28,27,4.07,scattered clouds
616,Fort Nelson,CA,58.8053,-122.7002,63.99,29,75,9.22,broken clouds
617,Rio Gallegos,AR,-51.6226,-69.2181,44.65,76,0,16.11,clear sky
618,Kapuskasing,CA,49.4169,-82.4331,48.29,53,20,8.05,few clouds
619,Tifton,US,31.4505,-83.5085,89.01,37,1,3.44,clear sky
620,Belyy Yar,RU,53.6039,91.3903,57.09,83,0,9.75,clear sky
621,Arlit,NE,18.7369,7.3853,93.63,8,5,2.98,clear sky
622,Kotelnich,RU,58.3089,48.348,57.0,66,100,5.95,overcast clouds
623,Harrisburg,US,40.2737,-76.8844,91.92,37,75,9.22,broken clouds
624,Kloulklubed,PW,7.0419,134.2556,77.5,77,100,9.78,overcast clouds
625,Balabac,PH,7.9868,117.0645,81.64,80,99,8.88,overcast clouds
626,Shaoyang,CN,27.2315,111.4525,62.31,95,100,2.13,overcast clouds
627,Topchanchi,IN,23.9,86.2,90.07,38,6,5.57,clear sky
628,Japoata,BR,-10.3467,-36.8011,78.24,73,99,8.28,overcast clouds
629,Zhanakorgan,KZ,43.9098,67.2495,80.35,22,16,23.4,few clouds
630,Smidovich,RU,48.6,133.8167,59.72,94,100,6.22,overcast clouds
631,Filingue,NE,14.3521,3.3168,98.85,19,95,2.62,overcast clouds
632,Port-Cartier,CA,50.0334,-66.8654,53.82,39,100,13.22,overcast clouds
633,Tab,HU,46.7314,18.032,53.24,86,100,9.04,light rain
634,Rundu,NA,-17.9333,19.7667,60.44,39,0,5.91,clear sky
635,Gat,IL,31.61,34.7642,70.48,75,6,5.06,clear sky
636,Ballina,AU,-28.8667,153.5667,55.78,100,40,6.91,scattered clouds
637,Cozumel,MX,20.5083,-86.9458,86.11,70,40,8.01,scattered clouds
638,Taganak,PH,6.0833,118.3,75.34,75,100,2.17,overcast clouds
639,Kupang,ID,-10.1667,123.5833,74.71,84,6,7.92,clear sky
640,Tambovka,RU,50.0969,128.0489,48.31,83,100,14.0,overcast clouds
641,Portland,US,45.5234,-122.6762,59.0,67,90,4.61,light intensity drizzle
642,Lebork,PL,54.5392,17.7501,54.95,83,18,5.82,few clouds
643,Margate,GB,51.3813,1.3862,55.11,74,100,4.0,overcast clouds
644,Thinadhoo,MV,0.5333,72.9333,83.61,74,88,12.8,overcast clouds
645,Paramonga,PE,-10.6667,-77.8333,69.35,75,30,9.82,scattered clouds
646,Faya,SA,18.3851,42.4509,68.11,42,0,4.34,clear sky
647,Hurghada,EG,27.2574,33.8129,82.4,28,0,17.27,clear sky
648,Sur,OM,22.5667,59.5289,86.86,66,0,13.53,clear sky
649,Yulara,AU,-25.2406,130.9889,64.24,42,75,8.05,broken clouds
650,Knysna,ZA,-34.0363,23.0471,71.98,41,58,7.18,broken clouds
651,Mecca,SA,21.4267,39.8261,88.48,40,0,3.58,clear sky
652,Ashford,GB,51.1459,0.8728,54.9,82,100,8.01,light rain
653,Meadow Lake,US,34.8014,-106.5436,80.83,11,0,15.99,clear sky
654,Sao Filipe,CV,14.8961,-24.4956,73.4,77,0,9.17,clear sky
655,Kaoma,ZM,-14.7833,24.8,59.85,52,57,7.25,broken clouds
656,Belmonte,BR,-15.8631,-38.8828,82.9,73,17,10.0,few clouds
657,Ajdabiya,LY,30.7554,20.2263,77.23,34,0,7.78,clear sky
658,Oum Hadjer,TD,13.2954,19.6966,92.73,9,1,10.51,clear sky
659,Male,MV,4.1748,73.5089,84.45,75,100,15.84,overcast clouds
660,Lira,UG,2.235,32.9097,67.98,85,100,3.98,overcast clouds
661,Wamba,NG,8.9333,8.6,76.48,83,97,5.03,light rain
662,Stephenville,US,32.2207,-98.2023,75.54,80,75,12.66,broken clouds
663,Sinnamary,GF,5.3833,-52.95,78.66,89,100,13.98,overcast clouds
664,Nambucca Heads,AU,-30.65,153.0,57.2,81,100,6.11,overcast clouds
665,Viedma,AR,-40.8135,-62.9967,58.5,50,0,11.61,clear sky
666,Georgiyevka,KZ,43.0369,74.7114,66.24,48,0,5.99,clear sky
667,A Coruna,ES,43.3713,-8.396,60.57,75,75,8.99,broken clouds
668,Karlstad,SE,59.3793,13.5036,50.56,93,90,5.68,overcast clouds
669,Kedrovyy,RU,56.1667,91.8167,61.21,93,100,8.14,overcast clouds
670,Shirokiy,RU,49.758,129.523,49.78,87,100,11.86,overcast clouds
671,Barranca,PE,-10.75,-77.7667,68.67,73,24,9.75,few clouds
672,Soltsy,RU,58.1239,30.3238,47.34,93,100,17.83,overcast clouds
673,Meridian,US,43.6121,-116.3915,59.2,68,90,1.99,overcast clouds
674,Ludvika,SE,60.1496,15.1878,46.04,85,100,10.13,overcast clouds
675,Avera,US,33.194,-82.5271,91.27,35,9,2.06,clear sky
676,Khuzdar,PK,27.7384,66.6434,75.47,37,0,3.44,clear sky
677,Panzhihua,CN,26.5851,101.7128,71.69,80,84,4.27,broken clouds
678,Pinas,EC,-3.6667,-79.65,83.52,85,94,3.15,light rain
679,Bitung,ID,1.4451,125.1824,76.05,78,100,2.64,overcast clouds
680,Tororo,UG,0.693,34.1809,65.7,87,95,4.29,overcast clouds
681,Pangnirtung,CA,66.1451,-65.7125,26.6,63,75,10.36,broken clouds
682,Mao,ES,39.8885,4.2658,59.56,82,0,18.41,clear sky
